{"displayFieldName":"","fieldAliases":{"FID":"FID","District":"District","Tehsil":"Tehsil","KD_Name":"KD_Name"},"geometryType":"esriGeometryPoint","spatialReference":{"wkid":4326,"latestWkid":4326,"vcsWkid":5773,"latestVcsWkid":5773},"fields":[{"name":"FID","type":"esriFieldTypeOID","alias":"FID"},{"name":"District","type":"esriFieldTypeString","alias":"District","length":254},{"name":"Tehsil","type":"esriFieldTypeString","alias":"Tehsil","length":254},{"name":"KD_Name","type":"esriFieldTypeString","alias":"KD_Name","length":254}],"features":[{"attributes":{"FID":0,"District":"Jhang","Tehsil":"Ahmed Pur Sial","KD_Name":"Fathepur Pirti"},"geometry":{"x":72.007112000000063,"y":31.027574000000072}},{"attributes":{"FID":1,"District":"Jhang","Tehsil":"Ahmed Pur Sial","KD_Name":"Nasheb Binda Goli"},"geometry":{"x":72.017890000000079,"y":30.984432000000027}},{"attributes":{"FID":2,"District":"Jhang","Tehsil":"Ahmed Pur Sial","KD_Name":"Meer Muhammad"},"geometry":{"x":71.968307000000038,"y":30.923310000000072}},{"attributes":{"FID":3,"District":"Jhang","Tehsil":"Ahmed Pur Sial","KD_Name":"Dagri"},"geometry":{"x":71.955401000000052,"y":30.978323000000046}},{"attributes":{"FID":4,"District":"Jhang","Tehsil":"Ahmed Pur Sial","KD_Name":"Dauluana Sharqi"},"geometry":{"x":71.848148000000037,"y":30.944147000000044}},{"attributes":{"FID":5,"District":"Jhang","Tehsil":"Ahmed Pur Sial","KD_Name":"Gudara"},"geometry":{"x":71.893711000000053,"y":30.911388000000045}},{"attributes":{"FID":6,"District":"Jhang","Tehsil":"Ahmed Pur Sial","KD_Name":"Basti Jhandir"},"geometry":{"x":71.919721000000038,"y":30.897200000000055}},{"attributes":{"FID":7,"District":"Jhang","Tehsil":"Ahmed Pur Sial","KD_Name":"Mahmud Shah"},"geometry":{"x":71.928413000000035,"y":30.875854000000061}},{"attributes":{"FID":8,"District":"Jhang","Tehsil":"Ahmed Pur Sial","KD_Name":"Bela Garh"},"geometry":{"x":71.90494700000005,"y":30.834197000000074}},{"attributes":{"FID":9,"District":"Jhang","Tehsil":"Ahmed Pur Sial","KD_Name":"Dul"},"geometry":{"x":71.836824000000036,"y":30.845679000000075}},{"attributes":{"FID":10,"District":"Jhang","Tehsil":"Ahmed Pur Sial","KD_Name":"Hazrat Sultan Bahu"},"geometry":{"x":71.874343000000067,"y":30.81823600000007}},{"attributes":{"FID":11,"District":"Jhang","Tehsil":"Ahmed Pur Sial","KD_Name":"Chak No.005 3L"},"geometry":{"x":71.773648000000037,"y":30.77478700000006}},{"attributes":{"FID":12,"District":"Jhang","Tehsil":"Ahmed Pur Sial","KD_Name":"Kulachi"},"geometry":{"x":71.727195000000052,"y":30.745675000000062}},{"attributes":{"FID":13,"District":"Jhang","Tehsil":"Ahmed Pur Sial","KD_Name":"Ranjeet Kot Janubi"},"geometry":{"x":71.816385000000082,"y":30.747916000000032}},{"attributes":{"FID":14,"District":"Jhang","Tehsil":"Ahmed Pur Sial","KD_Name":"Ahmed Pur Sial"},"geometry":{"x":71.765596000000073,"y":30.67909700000007}},{"attributes":{"FID":15,"District":"Jhang","Tehsil":"Ahmed Pur Sial","KD_Name":"Sidhauna"},"geometry":{"x":71.747353000000032,"y":30.628415000000075}},{"attributes":{"FID":16,"District":"Jhang","Tehsil":"Ahmed Pur Sial","KD_Name":"Chak No.004 4L"},"geometry":{"x":71.728545000000054,"y":30.679275000000075}}]}