{"displayFieldName":"","fieldAliases":{"FID":"FID","District":"District","Tehsil":"Tehsil","KD_Name":"KD_Name"},"geometryType":"esriGeometryPoint","spatialReference":{"wkid":4326,"latestWkid":4326,"vcsWkid":5773,"latestVcsWkid":5773},"fields":[{"name":"FID","type":"esriFieldTypeOID","alias":"FID"},{"name":"District","type":"esriFieldTypeString","alias":"District","length":254},{"name":"Tehsil","type":"esriFieldTypeString","alias":"Tehsil","length":254},{"name":"KD_Name","type":"esriFieldTypeString","alias":"KD_Name","length":254}],"features":[{"attributes":{"FID":0,"District":"Hafizabad","Tehsil":"Hafizabad","KD_Name":"Nakki Chatha"},"geometry":{"x":73.681552000000067,"y":32.269407000000058}},{"attributes":{"FID":1,"District":"Hafizabad","Tehsil":"Hafizabad","KD_Name":"Chak Mulo"},"geometry":{"x":73.613127000000077,"y":32.10078500000003}},{"attributes":{"FID":2,"District":"Hafizabad","Tehsil":"Hafizabad","KD_Name":"Batere"},"geometry":{"x":73.720064000000036,"y":32.115411000000051}},{"attributes":{"FID":3,"District":"Hafizabad","Tehsil":"Hafizabad","KD_Name":"Balaki Kohna"},"geometry":{"x":73.448738000000048,"y":32.147671000000059}},{"attributes":{"FID":4,"District":"Hafizabad","Tehsil":"Hafizabad","KD_Name":"Mehdiabad"},"geometry":{"x":73.504033000000049,"y":32.187267000000077}},{"attributes":{"FID":5,"District":"Hafizabad","Tehsil":"Hafizabad","KD_Name":"Melowal"},"geometry":{"x":73.639553000000035,"y":31.902045000000044}},{"attributes":{"FID":6,"District":"Hafizabad","Tehsil":"Hafizabad","KD_Name":"Vanike Tarar"},"geometry":{"x":73.585897000000045,"y":32.218477000000064}},{"attributes":{"FID":7,"District":"Hafizabad","Tehsil":"Hafizabad","KD_Name":"Asadullah pur Tarar"},"geometry":{"x":73.593830000000082,"y":32.248026000000038}},{"attributes":{"FID":8,"District":"Hafizabad","Tehsil":"Hafizabad","KD_Name":"Banger"},"geometry":{"x":73.52340300000003,"y":31.987269000000026}},{"attributes":{"FID":9,"District":"Hafizabad","Tehsil":"Hafizabad","KD_Name":"Aliabad"},"geometry":{"x":73.52693000000005,"y":32.096813000000054}},{"attributes":{"FID":10,"District":"Hafizabad","Tehsil":"Hafizabad","KD_Name":"Village Behak Ahmad Yar"},"geometry":{"x":73.537307000000055,"y":32.22607000000005}},{"attributes":{"FID":11,"District":"Hafizabad","Tehsil":"Hafizabad","KD_Name":"Wchoke Khurd"},"geometry":{"x":73.668452000000059,"y":31.997873000000027}},{"attributes":{"FID":12,"District":"Hafizabad","Tehsil":"Hafizabad","KD_Name":"Burj Dara"},"geometry":{"x":73.634349000000043,"y":31.946932000000061}},{"attributes":{"FID":13,"District":"Hafizabad","Tehsil":"Hafizabad","KD_Name":"Chhani Mitha"},"geometry":{"x":73.61131400000005,"y":32.062381000000073}},{"attributes":{"FID":14,"District":"Hafizabad","Tehsil":"Hafizabad","KD_Name":"Hameedpura"},"geometry":{"x":73.704139000000055,"y":32.037641000000065}},{"attributes":{"FID":15,"District":"Hafizabad","Tehsil":"Hafizabad","KD_Name":"Dheranke"},"geometry":{"x":73.630291000000057,"y":32.147940000000062}},{"attributes":{"FID":16,"District":"Hafizabad","Tehsil":"Hafizabad","KD_Name":"Adda Kot Panah"},"geometry":{"x":73.749811000000079,"y":32.182624000000033}},{"attributes":{"FID":17,"District":"Hafizabad","Tehsil":"Hafizabad","KD_Name":"Mangat Neech"},"geometry":{"x":73.777920000000051,"y":32.11266500000005}},{"attributes":{"FID":18,"District":"Hafizabad","Tehsil":"Hafizabad","KD_Name":"Sayadanwala Sharif"},"geometry":{"x":73.482424000000037,"y":32.119837000000075}},{"attributes":{"FID":19,"District":"Hafizabad","Tehsil":"Hafizabad","KD_Name":"Amrao Kalan Tarar"},"geometry":{"x":73.64803100000006,"y":32.247274000000061}},{"attributes":{"FID":20,"District":"Hafizabad","Tehsil":"Hafizabad","KD_Name":"Bahri Tarar"},"geometry":{"x":73.623924000000045,"y":32.276999000000046}},{"attributes":{"FID":21,"District":"Hafizabad","Tehsil":"Hafizabad","KD_Name":"Kot Nanak"},"geometry":{"x":73.791940000000068,"y":31.982004000000074}},{"attributes":{"FID":22,"District":"Hafizabad","Tehsil":"Hafizabad","KD_Name":"Kasso Ke"},"geometry":{"x":73.731505000000084,"y":31.981041000000062}},{"attributes":{"FID":23,"District":"Hafizabad","Tehsil":"Hafizabad","KD_Name":"Jhanb Tarar"},"geometry":{"x":73.57046900000006,"y":32.168192000000033}},{"attributes":{"FID":24,"District":"Hafizabad","Tehsil":"Hafizabad","KD_Name":"Channi Churera"},"geometry":{"x":73.582847000000072,"y":31.977848000000051}},{"attributes":{"FID":25,"District":"Hafizabad","Tehsil":"Hafizabad","KD_Name":"Kalianwala"},"geometry":{"x":73.68632800000006,"y":32.131346000000065}},{"attributes":{"FID":26,"District":"Hafizabad","Tehsil":"Hafizabad","KD_Name":"Madhrianwala"},"geometry":{"x":73.629039000000034,"y":32.031997000000047}},{"attributes":{"FID":27,"District":"Hafizabad","Tehsil":"Hafizabad","KD_Name":"Seyoke"},"geometry":{"x":73.793792000000053,"y":32.04551900000007}},{"attributes":{"FID":28,"District":"Hafizabad","Tehsil":"Hafizabad","KD_Name":"Kot Jafar"},"geometry":{"x":73.449755000000039,"y":32.185547000000042}},{"attributes":{"FID":29,"District":"Hafizabad","Tehsil":"Hafizabad","KD_Name":"Noor Pura"},"geometry":{"x":73.561983000000055,"y":32.120495000000062}},{"attributes":{"FID":30,"District":"Hafizabad","Tehsil":"Hafizabad","KD_Name":"Chak Ghazi"},"geometry":{"x":73.700691000000063,"y":32.20668900000004}},{"attributes":{"FID":31,"District":"Hafizabad","Tehsil":"Hafizabad","KD_Name":"Kot Hassan Khan"},"geometry":{"x":73.706165000000055,"y":31.96262500000006}}]}