{"displayFieldName":"","fieldAliases":{"FID":"FID","District":"District","Tehsil":"Tehsil","Mauza":"Mauza"},"geometryType":"esriGeometryPoint","spatialReference":{"wkid":4326,"latestWkid":4326,"vcsWkid":5773,"latestVcsWkid":5773},"fields":[{"name":"FID","type":"esriFieldTypeOID","alias":"FID"},{"name":"District","type":"esriFieldTypeString","alias":"District","length":254},{"name":"Tehsil","type":"esriFieldTypeString","alias":"Tehsil","length":254},{"name":"Mauza","type":"esriFieldTypeString","alias":"Mauza","length":254}],"features":[{"attributes":{"FID":0,"District":"Jhang","Tehsil":"Jhang","Mauza":"Bhon"},"geometry":{"x":72.25690000000003,"y":31.779684000000032}},{"attributes":{"FID":1,"District":"Jhang","Tehsil":"Jhang","Mauza":"Bheru"},"geometry":{"x":72.296887000000083,"y":31.720499000000075}},{"attributes":{"FID":2,"District":"Jhang","Tehsil":"Jhang","Mauza":"Sargana"},"geometry":{"x":72.263709000000063,"y":31.712337000000048}},{"attributes":{"FID":3,"District":"Jhang","Tehsil":"Jhang","Mauza":"Atoana"},"geometry":{"x":72.267303000000084,"y":31.681548000000078}},{"attributes":{"FID":4,"District":"Jhang","Tehsil":"Jhang","Mauza":"Jhok Usman"},"geometry":{"x":72.190343000000041,"y":31.688626000000056}},{"attributes":{"FID":5,"District":"Jhang","Tehsil":"Jhang","Mauza":"Sobhaga"},"geometry":{"x":72.20270800000003,"y":31.624454000000071}},{"attributes":{"FID":6,"District":"Jhang","Tehsil":"Jhang","Mauza":"Munda"},"geometry":{"x":72.187084000000084,"y":31.59726900000004}},{"attributes":{"FID":7,"District":"Jhang","Tehsil":"Jhang","Mauza":"Tibba Dhupsari"},"geometry":{"x":72.232404000000031,"y":31.55182700000006}},{"attributes":{"FID":8,"District":"Jhang","Tehsil":"Jhang","Mauza":"Jungle Kathian Wala"},"geometry":{"x":72.15916500000003,"y":31.458624000000043}},{"attributes":{"FID":9,"District":"Jhang","Tehsil":"Jhang","Mauza":"Chak Baluchan Wala"},"geometry":{"x":72.203930000000071,"y":31.451687000000049}},{"attributes":{"FID":10,"District":"Jhang","Tehsil":"Jhang","Mauza":"Jungal Kutab"},"geometry":{"x":72.25880600000005,"y":31.462097000000028}},{"attributes":{"FID":11,"District":"Jhang","Tehsil":"Jhang","Mauza":"Berwali"},"geometry":{"x":72.295880000000068,"y":31.557676000000072}},{"attributes":{"FID":12,"District":"Jhang","Tehsil":"Jhang","Mauza":"Hisam"},"geometry":{"x":72.342054000000076,"y":31.60833800000006}},{"attributes":{"FID":13,"District":"Jhang","Tehsil":"Jhang","Mauza":"Latif Pur"},"geometry":{"x":72.370084000000077,"y":31.633481000000074}},{"attributes":{"FID":14,"District":"Jhang","Tehsil":"Jhang","Mauza":"Chauk Mahabli"},"geometry":{"x":72.422765000000084,"y":31.581543000000067}},{"attributes":{"FID":15,"District":"Jhang","Tehsil":"Jhang","Mauza":"Panjgirain"},"geometry":{"x":72.403943000000083,"y":31.577960000000076}},{"attributes":{"FID":16,"District":"Jhang","Tehsil":"Jhang","Mauza":"Thatha Jabana"},"geometry":{"x":72.318547000000081,"y":31.489625000000046}},{"attributes":{"FID":17,"District":"Jhang","Tehsil":"Jhang","Mauza":"Kot Bura"},"geometry":{"x":72.152425000000051,"y":31.422468000000038}},{"attributes":{"FID":18,"District":"Jhang","Tehsil":"Jhang","Mauza":"Bela Qureshi"},"geometry":{"x":72.237003000000072,"y":31.388032000000067}},{"attributes":{"FID":19,"District":"Jhang","Tehsil":"Jhang","Mauza":"Kot Sukha"},"geometry":{"x":72.142918000000066,"y":31.375076000000035}},{"attributes":{"FID":20,"District":"Jhang","Tehsil":"Jhang","Mauza":"Chak Sayallan"},"geometry":{"x":72.203017000000045,"y":31.396234000000049}},{"attributes":{"FID":21,"District":"Jhang","Tehsil":"Jhang","Mauza":"Kot Braham"},"geometry":{"x":72.126637000000073,"y":31.316422000000046}},{"attributes":{"FID":22,"District":"Jhang","Tehsil":"Jhang","Mauza":"Jharki"},"geometry":{"x":72.187561000000073,"y":31.310099000000037}},{"attributes":{"FID":23,"District":"Jhang","Tehsil":"Jhang","Mauza":"Pirkot Sadhana"},"geometry":{"x":72.16268000000008,"y":31.269294000000059}},{"attributes":{"FID":24,"District":"Jhang","Tehsil":"Jhang","Mauza":"Mansur Sial"},"geometry":{"x":72.232038000000045,"y":31.153067000000078}},{"attributes":{"FID":25,"District":"Jhang","Tehsil":"Jhang","Mauza":"Kot Khera"},"geometry":{"x":72.250905000000046,"y":31.18794900000006}},{"attributes":{"FID":26,"District":"Jhang","Tehsil":"Jhang","Mauza":"Kot Dewan"},"geometry":{"x":72.236455000000035,"y":31.116481000000078}},{"attributes":{"FID":27,"District":"Jhang","Tehsil":"Jhang","Mauza":"Gilmala"},"geometry":{"x":72.315875000000062,"y":31.068237000000067}},{"attributes":{"FID":28,"District":"Jhang","Tehsil":"Jhang","Mauza":"Lak Badhar"},"geometry":{"x":72.291810000000055,"y":31.153241000000037}},{"attributes":{"FID":29,"District":"Jhang","Tehsil":"Jhang","Mauza":"Jalalpur"},"geometry":{"x":72.325685000000078,"y":31.130493000000058}},{"attributes":{"FID":30,"District":"Jhang","Tehsil":"Jhang","Mauza":"Chak No.440"},"geometry":{"x":72.40896900000007,"y":31.106385000000046}},{"attributes":{"FID":31,"District":"Jhang","Tehsil":"Jhang","Mauza":"Chak No.443"},"geometry":{"x":72.446540000000084,"y":31.151293000000067}},{"attributes":{"FID":32,"District":"Jhang","Tehsil":"Jhang","Mauza":"Basti Shah Shakoor"},"geometry":{"x":72.342900000000043,"y":31.20458700000006}},{"attributes":{"FID":33,"District":"Jhang","Tehsil":"Jhang","Mauza":"Bangas"},"geometry":{"x":72.281381000000067,"y":31.229301000000078}},{"attributes":{"FID":34,"District":"Jhang","Tehsil":"Jhang","Mauza":"Bela Jhabana"},"geometry":{"x":72.304009000000065,"y":31.292013000000054}},{"attributes":{"FID":35,"District":"Jhang","Tehsil":"Jhang","Mauza":"Pukkewala"},"geometry":{"x":72.312239000000034,"y":31.347096000000079}},{"attributes":{"FID":36,"District":"Jhang","Tehsil":"Jhang","Mauza":"Kot Sai Singh"},"geometry":{"x":72.364533000000051,"y":31.316370000000063}},{"attributes":{"FID":37,"District":"Jhang","Tehsil":"Jhang","Mauza":"Chak No.262 Jb"},"geometry":{"x":72.429950000000076,"y":31.321018000000038}},{"attributes":{"FID":38,"District":"Jhang","Tehsil":"Jhang","Mauza":"Chak No.216"},"geometry":{"x":72.499757000000045,"y":31.294029000000023}},{"attributes":{"FID":39,"District":"Jhang","Tehsil":"Jhang","Mauza":"Chak No.457 Jb"},"geometry":{"x":72.388216000000057,"y":31.244893000000047}},{"attributes":{"FID":40,"District":"Jhang","Tehsil":"Jhang","Mauza":"Chak No.444"},"geometry":{"x":72.439466000000039,"y":31.200618000000077}},{"attributes":{"FID":41,"District":"Jhang","Tehsil":"Jhang","Mauza":"Chak No.447 Jb"},"geometry":{"x":72.498316000000045,"y":31.253082000000063}},{"attributes":{"FID":42,"District":"Jhang","Tehsil":"Jhang","Mauza":"Chak No.449 Jb"},"geometry":{"x":72.535409000000072,"y":31.257168000000036}},{"attributes":{"FID":43,"District":"Jhang","Tehsil":"Jhang","Mauza":"Chak No.177 Jb"},"geometry":{"x":72.623088000000052,"y":31.310417000000029}},{"attributes":{"FID":44,"District":"Jhang","Tehsil":"Jhang","Mauza":"Chak No.252 Jb"},"geometry":{"x":72.643433000000073,"y":31.368742000000054}},{"attributes":{"FID":45,"District":"Jhang","Tehsil":"Jhang","Mauza":"Chak No.160 Jb"},"geometry":{"x":72.59642000000008,"y":31.356236000000024}},{"attributes":{"FID":46,"District":"Jhang","Tehsil":"Jhang","Mauza":"Chak No.257 Jb"},"geometry":{"x":72.589964000000066,"y":31.433241000000066}},{"attributes":{"FID":47,"District":"Jhang","Tehsil":"Jhang","Mauza":"Chak No.167 Jb"},"geometry":{"x":72.55400300000008,"y":31.386308000000042}},{"attributes":{"FID":48,"District":"Jhang","Tehsil":"Jhang","Mauza":"Chak No.182 Jb"},"geometry":{"x":72.506531000000052,"y":31.324213000000043}},{"attributes":{"FID":49,"District":"Jhang","Tehsil":"Jhang","Mauza":"Mukhiana"},"geometry":{"x":72.463111000000083,"y":31.389911000000041}},{"attributes":{"FID":50,"District":"Jhang","Tehsil":"Jhang","Mauza":"Chak Kuriana Janubi"},"geometry":{"x":72.445017000000064,"y":31.355170000000044}},{"attributes":{"FID":51,"District":"Jhang","Tehsil":"Jhang","Mauza":"Satiana"},"geometry":{"x":72.494173000000046,"y":31.43304900000004}},{"attributes":{"FID":52,"District":"Jhang","Tehsil":"Jhang","Mauza":"Bhochra"},"geometry":{"x":72.496226000000036,"y":31.472852000000046}},{"attributes":{"FID":53,"District":"Jhang","Tehsil":"Jhang","Mauza":"Jogera"},"geometry":{"x":72.438206000000037,"y":31.47709100000003}},{"attributes":{"FID":54,"District":"Jhang","Tehsil":"Jhang","Mauza":"Bindi Baig Mahni"},"geometry":{"x":72.409115000000043,"y":31.478095000000053}},{"attributes":{"FID":55,"District":"Jhang","Tehsil":"Jhang","Mauza":"Sultanpur"},"geometry":{"x":72.415688000000046,"y":31.431481000000076}},{"attributes":{"FID":56,"District":"Jhang","Tehsil":"Jhang","Mauza":"Ballu Shahabal"},"geometry":{"x":72.378616000000079,"y":31.402660000000026}},{"attributes":{"FID":57,"District":"Jhang","Tehsil":"Jhang","Mauza":"Chautala"},"geometry":{"x":72.341305000000034,"y":31.369867000000056}},{"attributes":{"FID":58,"District":"Jhang","Tehsil":"Jhang","Mauza":"Khewa"},"geometry":{"x":72.462663000000077,"y":31.452255000000036}},{"attributes":{"FID":59,"District":"Jhang","Tehsil":"Jhang","Mauza":"Aubanwala"},"geometry":{"x":72.223959000000036,"y":31.316773000000069}},{"attributes":{"FID":60,"District":"Jhang","Tehsil":"Jhang","Mauza":"Bela Bagar"},"geometry":{"x":72.177556000000038,"y":31.212169000000074}},{"attributes":{"FID":61,"District":"Jhang","Tehsil":"Jhang","Mauza":"Chak Janpur"},"geometry":{"x":72.202743000000055,"y":31.244887000000062}},{"attributes":{"FID":62,"District":"Jhang","Tehsil":"Jhang","Mauza":"Sher Garh"},"geometry":{"x":72.370403000000067,"y":31.509800000000041}}]}