{"displayFieldName":"","fieldAliases":{"FID":"FID","District":"District","Tehsil":"Tehsil","KD_Name":"KD_Name"},"geometryType":"esriGeometryPoint","spatialReference":{"wkid":4326,"latestWkid":4326,"vcsWkid":5773,"latestVcsWkid":5773},"fields":[{"name":"FID","type":"esriFieldTypeOID","alias":"FID"},{"name":"District","type":"esriFieldTypeString","alias":"District","length":254},{"name":"Tehsil","type":"esriFieldTypeString","alias":"Tehsil","length":254},{"name":"KD_Name","type":"esriFieldTypeString","alias":"KD_Name","length":254}],"features":[{"attributes":{"FID":0,"District":"Hafizabad","Tehsil":"Pindi Bhattian","KD_Name":"Tahili Goraya"},"geometry":{"x":73.329765000000066,"y":31.995229000000052}},{"attributes":{"FID":1,"District":"Hafizabad","Tehsil":"Pindi Bhattian","KD_Name":"Mohalla Fazil Pora, Sukheke"},"geometry":{"x":73.509298000000058,"y":31.86447400000003}},{"attributes":{"FID":2,"District":"Hafizabad","Tehsil":"Pindi Bhattian","KD_Name":"Machunika"},"geometry":{"x":73.212450000000047,"y":31.847716000000048}},{"attributes":{"FID":3,"District":"Hafizabad","Tehsil":"Pindi Bhattian","KD_Name":"Jalalpur Kuhna"},"geometry":{"x":73.365506000000039,"y":32.070314000000053}},{"attributes":{"FID":4,"District":"Hafizabad","Tehsil":"Pindi Bhattian","KD_Name":"Nai Abadi, Pindi Bhattian Interchange"},"geometry":{"x":73.282439000000068,"y":31.927728000000059}},{"attributes":{"FID":5,"District":"Hafizabad","Tehsil":"Pindi Bhattian","KD_Name":"Thatta Khairo Matmal"},"geometry":{"x":73.337792000000036,"y":31.889536000000078}},{"attributes":{"FID":6,"District":"Hafizabad","Tehsil":"Pindi Bhattian","KD_Name":"Kot Ghazi Kalan"},"geometry":{"x":73.28503900000004,"y":32.056670000000054}},{"attributes":{"FID":7,"District":"Hafizabad","Tehsil":"Pindi Bhattian","KD_Name":"Awan Town"},"geometry":{"x":73.258269000000041,"y":31.98163100000005}},{"attributes":{"FID":8,"District":"Hafizabad","Tehsil":"Pindi Bhattian","KD_Name":"MEHMOODPUR GHARBI"},"geometry":{"x":73.368283000000076,"y":32.131324000000063}},{"attributes":{"FID":9,"District":"Hafizabad","Tehsil":"Pindi Bhattian","KD_Name":"Mustafa Abad"},"geometry":{"x":73.280084000000045,"y":31.822883000000047}},{"attributes":{"FID":10,"District":"Hafizabad","Tehsil":"Pindi Bhattian","KD_Name":"Garhi Gondal"},"geometry":{"x":73.273427000000083,"y":32.017170000000078}},{"attributes":{"FID":11,"District":"Hafizabad","Tehsil":"Pindi Bhattian","KD_Name":"Thatha Jahid Amir Wala"},"geometry":{"x":73.377788000000066,"y":31.987602000000038}},{"attributes":{"FID":12,"District":"Hafizabad","Tehsil":"Pindi Bhattian","KD_Name":"Wijhwan Sharif"},"geometry":{"x":73.403475000000071,"y":31.948413000000073}},{"attributes":{"FID":13,"District":"Hafizabad","Tehsil":"Pindi Bhattian","KD_Name":"Thathi Bahloolpur"},"geometry":{"x":73.213608000000079,"y":31.932828000000029}},{"attributes":{"FID":14,"District":"Hafizabad","Tehsil":"Pindi Bhattian","KD_Name":"Sukhe Ke Mandi"},"geometry":{"x":73.409891000000073,"y":31.882981000000029}},{"attributes":{"FID":15,"District":"Hafizabad","Tehsil":"Pindi Bhattian","KD_Name":"Macsooda Bhattian"},"geometry":{"x":73.202226000000053,"y":31.893588000000079}},{"attributes":{"FID":16,"District":"Hafizabad","Tehsil":"Pindi Bhattian","KD_Name":"Matteke"},"geometry":{"x":73.461607000000072,"y":31.996262000000058}},{"attributes":{"FID":17,"District":"Hafizabad","Tehsil":"Pindi Bhattian","KD_Name":"Walleki"},"geometry":{"x":73.509078000000045,"y":32.047199000000035}},{"attributes":{"FID":18,"District":"Hafizabad","Tehsil":"Pindi Bhattian","KD_Name":"Thatta Asalat"},"geometry":{"x":73.313725000000034,"y":31.950738000000058}},{"attributes":{"FID":19,"District":"Hafizabad","Tehsil":"Pindi Bhattian","KD_Name":"Ali Najaf Town"},"geometry":{"x":73.368056000000081,"y":32.048815000000047}},{"attributes":{"FID":20,"District":"Hafizabad","Tehsil":"Pindi Bhattian","KD_Name":"Thatha Sabat Shah"},"geometry":{"x":73.377716000000078,"y":31.843359000000078}},{"attributes":{"FID":21,"District":"Hafizabad","Tehsil":"Pindi Bhattian","KD_Name":"Khuna Bhattian"},"geometry":{"x":73.430278000000044,"y":32.110708000000045}},{"attributes":{"FID":22,"District":"Hafizabad","Tehsil":"Pindi Bhattian","KD_Name":"Chak Wazeer Singh"},"geometry":{"x":73.459560000000067,"y":31.917738000000043}},{"attributes":{"FID":23,"District":"Hafizabad","Tehsil":"Pindi Bhattian","KD_Name":"Nikka Nawan Manika"},"geometry":{"x":73.460123000000067,"y":31.856966000000057}},{"attributes":{"FID":24,"District":"Hafizabad","Tehsil":"Pindi Bhattian","KD_Name":"Rasool Pur"},"geometry":{"x":73.463662000000056,"y":32.058297000000039}},{"attributes":{"FID":25,"District":"Hafizabad","Tehsil":"Pindi Bhattian","KD_Name":"Thatha Langar"},"geometry":{"x":73.361410000000035,"y":31.833784000000037}},{"attributes":{"FID":26,"District":"Hafizabad","Tehsil":"Pindi Bhattian","KD_Name":"Haveli Harbhaj Roy"},"geometry":{"x":73.263629000000037,"y":31.855011000000047}},{"attributes":{"FID":27,"District":"Hafizabad","Tehsil":"Pindi Bhattian","KD_Name":"Nali Mohal"},"geometry":{"x":73.49882400000007,"y":31.944106000000033}},{"attributes":{"FID":28,"District":"Hafizabad","Tehsil":"Pindi Bhattian","KD_Name":"Pul Ghubrica"},"geometry":{"x":73.223614000000055,"y":31.797615000000064}},{"attributes":{"FID":29,"District":"Hafizabad","Tehsil":"Pindi Bhattian","KD_Name":"Rakh"},"geometry":{"x":73.533629000000076,"y":31.894437000000039}}]}