{"displayFieldName":"","fieldAliases":{"FID":"FID","District":"District","Tehsil":"Tehsil","KD_Name":"KD_Name"},"geometryType":"esriGeometryPoint","spatialReference":{"wkid":4326,"latestWkid":4326,"vcsWkid":5773,"latestVcsWkid":5773},"fields":[{"name":"FID","type":"esriFieldTypeOID","alias":"FID"},{"name":"District","type":"esriFieldTypeString","alias":"District","length":254},{"name":"Tehsil","type":"esriFieldTypeString","alias":"Tehsil","length":254},{"name":"KD_Name","type":"esriFieldTypeString","alias":"KD_Name","length":254}],"features":[{"attributes":{"FID":0,"District":"Chiniot","Tehsil":"Lalian","KD_Name":"Kandiwal"},"geometry":{"x":72.937035000000037,"y":31.91166000000004}},{"attributes":{"FID":1,"District":"Chiniot","Tehsil":"Lalian","KD_Name":"Kalnoor Sharif"},"geometry":{"x":73.023053000000061,"y":31.941337000000033}},{"attributes":{"FID":2,"District":"Chiniot","Tehsil":"Lalian","KD_Name":"Bhaiwal"},"geometry":{"x":73.011014000000046,"y":31.885314000000051}},{"attributes":{"FID":3,"District":"Chiniot","Tehsil":"Lalian","KD_Name":"Kalowal"},"geometry":{"x":73.04954500000008,"y":31.915429000000074}},{"attributes":{"FID":4,"District":"Chiniot","Tehsil":"Lalian","KD_Name":"Langar Makhd"},"geometry":{"x":73.029768000000047,"y":31.904329000000075}},{"attributes":{"FID":5,"District":"Chiniot","Tehsil":"Lalian","KD_Name":"Hammonwala"},"geometry":{"x":73.014660000000049,"y":31.853300000000047}},{"attributes":{"FID":6,"District":"Chiniot","Tehsil":"Lalian","KD_Name":"Thathi Alam Shah"},"geometry":{"x":72.944566000000066,"y":31.789027000000033}},{"attributes":{"FID":7,"District":"Chiniot","Tehsil":"Lalian","KD_Name":"Kot Talib"},"geometry":{"x":72.926090000000045,"y":31.820159000000046}},{"attributes":{"FID":8,"District":"Chiniot","Tehsil":"Lalian","KD_Name":"Kawen Wala"},"geometry":{"x":72.871039000000053,"y":31.85023700000005}},{"attributes":{"FID":9,"District":"Chiniot","Tehsil":"Lalian","KD_Name":"Ahmed Nagar"},"geometry":{"x":72.886160000000075,"y":31.788324000000046}},{"attributes":{"FID":10,"District":"Chiniot","Tehsil":"Lalian","KD_Name":"Winoka"},"geometry":{"x":72.760629000000051,"y":31.792626000000041}},{"attributes":{"FID":11,"District":"Chiniot","Tehsil":"Lalian","KD_Name":"Wallah"},"geometry":{"x":72.724593000000084,"y":31.774910000000034}},{"attributes":{"FID":12,"District":"Chiniot","Tehsil":"Lalian","KD_Name":"Daver"},"geometry":{"x":72.84305100000006,"y":31.75684300000006}},{"attributes":{"FID":13,"District":"Chiniot","Tehsil":"Lalian","KD_Name":"Sangre Wala"},"geometry":{"x":72.79004400000008,"y":31.735888000000045}},{"attributes":{"FID":14,"District":"Chiniot","Tehsil":"Lalian","KD_Name":"Sabirwala"},"geometry":{"x":72.752564000000064,"y":31.760505000000023}},{"attributes":{"FID":15,"District":"Chiniot","Tehsil":"Lalian","KD_Name":"Thathi Bala Raja"},"geometry":{"x":72.719434000000035,"y":31.719688000000076}},{"attributes":{"FID":16,"District":"Chiniot","Tehsil":"Lalian","KD_Name":"Barana"},"geometry":{"x":72.630382000000054,"y":31.727843000000064}},{"attributes":{"FID":17,"District":"Chiniot","Tehsil":"Lalian","KD_Name":"Pir Panja"},"geometry":{"x":72.654310000000066,"y":31.709065000000066}},{"attributes":{"FID":18,"District":"Chiniot","Tehsil":"Lalian","KD_Name":"Ganja Tala"},"geometry":{"x":72.598617000000047,"y":31.77826900000008}},{"attributes":{"FID":19,"District":"Chiniot","Tehsil":"Lalian","KD_Name":"Wijhalke"},"geometry":{"x":72.572819000000038,"y":31.690316000000053}},{"attributes":{"FID":20,"District":"Chiniot","Tehsil":"Lalian","KD_Name":"Chak 49 SB"},"geometry":{"x":72.54032600000005,"y":31.745361000000059}},{"attributes":{"FID":21,"District":"Chiniot","Tehsil":"Lalian","KD_Name":"Pipple Bhutta"},"geometry":{"x":72.530857000000083,"y":31.666915000000074}},{"attributes":{"FID":22,"District":"Chiniot","Tehsil":"Lalian","KD_Name":"Ahmed Wala"},"geometry":{"x":72.529432000000043,"y":31.64116000000007}},{"attributes":{"FID":23,"District":"Chiniot","Tehsil":"Lalian","KD_Name":"Kot Ameer"},"geometry":{"x":72.469467000000066,"y":31.65832800000004}},{"attributes":{"FID":24,"District":"Chiniot","Tehsil":"Lalian","KD_Name":"Tibbi Lalera"},"geometry":{"x":72.486105000000066,"y":31.610898000000077}},{"attributes":{"FID":25,"District":"Chiniot","Tehsil":"Lalian","KD_Name":"Sheikhan"},"geometry":{"x":72.453272000000084,"y":31.611813000000041}}]}