{"displayFieldName":"","fieldAliases":{"FID":"FID","District":"District","Tehsil":"Tehsil","KD_Name":"KD_Name"},"geometryType":"esriGeometryPoint","spatialReference":{"wkid":4326,"latestWkid":4326,"vcsWkid":5773,"latestVcsWkid":5773},"fields":[{"name":"FID","type":"esriFieldTypeOID","alias":"FID"},{"name":"District","type":"esriFieldTypeString","alias":"District","length":254},{"name":"Tehsil","type":"esriFieldTypeString","alias":"Tehsil","length":254},{"name":"KD_Name","type":"esriFieldTypeString","alias":"KD_Name","length":254}],"features":[{"attributes":{"FID":0,"District":"Jhang","Tehsil":"18 Hazari","KD_Name":"Tatar Kot"},"geometry":{"x":72.150928000000079,"y":31.724220000000059}},{"attributes":{"FID":1,"District":"Jhang","Tehsil":"18 Hazari","KD_Name":"Aura"},"geometry":{"x":72.108287000000075,"y":31.613141000000041}},{"attributes":{"FID":2,"District":"Jhang","Tehsil":"18 Hazari","KD_Name":"Ahmed Abad"},"geometry":{"x":72.084198000000072,"y":31.512131000000068}},{"attributes":{"FID":3,"District":"Jhang","Tehsil":"18 Hazari","KD_Name":"Paropi"},"geometry":{"x":72.090925000000084,"y":31.482751000000064}},{"attributes":{"FID":4,"District":"Jhang","Tehsil":"18 Hazari","KD_Name":"Chak No. 007 3 Thal Shumali"},"geometry":{"x":72.077412000000038,"y":31.440609000000052}},{"attributes":{"FID":5,"District":"Jhang","Tehsil":"18 Hazari","KD_Name":"Chak No. 007 2 Thal Janubi"},"geometry":{"x":72.066940000000045,"y":31.327954000000034}},{"attributes":{"FID":6,"District":"Jhang","Tehsil":"18 Hazari","KD_Name":"Jhok Bhurani"},"geometry":{"x":72.071995000000072,"y":31.387343000000044}},{"attributes":{"FID":7,"District":"Jhang","Tehsil":"18 Hazari","KD_Name":"Loharanwala"},"geometry":{"x":72.086474000000067,"y":31.287422000000049}},{"attributes":{"FID":8,"District":"Jhang","Tehsil":"18 Hazari","KD_Name":"Dal"},"geometry":{"x":72.039975000000084,"y":31.202398000000073}},{"attributes":{"FID":9,"District":"Jhang","Tehsil":"18 Hazari","KD_Name":"Kharal"},"geometry":{"x":72.096398000000079,"y":31.191448000000037}},{"attributes":{"FID":10,"District":"Jhang","Tehsil":"18 Hazari","KD_Name":"Chak No. 011 3"},"geometry":{"x":71.99336500000004,"y":31.16305200000005}},{"attributes":{"FID":11,"District":"Jhang","Tehsil":"18 Hazari","KD_Name":"Chak Sat"},"geometry":{"x":71.860900000000072,"y":31.178360000000055}},{"attributes":{"FID":12,"District":"Jhang","Tehsil":"18 Hazari","KD_Name":"Chak No. 011 2"},"geometry":{"x":71.907958000000065,"y":31.152503000000024}},{"attributes":{"FID":13,"District":"Jhang","Tehsil":"18 Hazari","KD_Name":"Chak No. 010 1"},"geometry":{"x":71.944385000000068,"y":31.094561000000056}},{"attributes":{"FID":14,"District":"Jhang","Tehsil":"18 Hazari","KD_Name":"Jamali Kalan"},"geometry":{"x":72.038647000000083,"y":31.156925000000058}},{"attributes":{"FID":15,"District":"Jhang","Tehsil":"18 Hazari","KD_Name":"Rashipur"},"geometry":{"x":72.090178000000037,"y":31.128561000000047}},{"attributes":{"FID":16,"District":"Jhang","Tehsil":"18 Hazari","KD_Name":"Dhan Maiani"},"geometry":{"x":72.048175000000072,"y":31.09776800000003}},{"attributes":{"FID":17,"District":"Jhang","Tehsil":"18 Hazari","KD_Name":"Rodu Sultan"},"geometry":{"x":72.011532000000045,"y":31.060205000000053}},{"attributes":{"FID":18,"District":"Jhang","Tehsil":"18 Hazari","KD_Name":"Sahjar"},"geometry":{"x":72.089537000000064,"y":31.458859000000075}},{"attributes":{"FID":19,"District":"Jhang","Tehsil":"18 Hazari","KD_Name":"Chak No. 010 2"},"geometry":{"x":71.972553000000062,"y":31.133754000000067}},{"attributes":{"FID":20,"District":"Jhang","Tehsil":"18 Hazari","KD_Name":"Kot Murad"},"geometry":{"x":72.058160000000044,"y":31.034431000000041}}]}