{"displayFieldName":"","fieldAliases":{"FID":"FID","District":"District","Tehsil":"Tehsil","KD_Name":"KD_Name"},"geometryType":"esriGeometryPoint","spatialReference":{"wkid":4326,"latestWkid":4326,"vcsWkid":5773,"latestVcsWkid":5773},"fields":[{"name":"FID","type":"esriFieldTypeOID","alias":"FID"},{"name":"District","type":"esriFieldTypeString","alias":"District","length":254},{"name":"Tehsil","type":"esriFieldTypeString","alias":"Tehsil","length":254},{"name":"KD_Name","type":"esriFieldTypeString","alias":"KD_Name","length":254}],"features":[{"attributes":{"FID":0,"District":"TT Singh","Tehsil":"Gojra","KD_Name":"Chak 277+Jb  Budhin Nangal"},"geometry":{"x":72.765210000000081,"y":31.332414000000028}},{"attributes":{"FID":1,"District":"TT Singh","Tehsil":"Gojra","KD_Name":"Chak 345+Jb  Mehtabpur"},"geometry":{"x":72.71893300000005,"y":31.324084000000028}},{"attributes":{"FID":2,"District":"TT Singh","Tehsil":"Gojra","KD_Name":"Chak 279+Jb  Bajwara Darapur"},"geometry":{"x":72.802924000000075,"y":31.280810000000031}},{"attributes":{"FID":3,"District":"TT Singh","Tehsil":"Gojra","KD_Name":"Chak 337+Jb  Sikandar Abad"},"geometry":{"x":72.715108000000043,"y":31.286547000000041}},{"attributes":{"FID":4,"District":"TT Singh","Tehsil":"Gojra","KD_Name":"Chak 415+Jb  Kot Chandar Ke"},"geometry":{"x":72.683434000000034,"y":31.278256000000056}},{"attributes":{"FID":5,"District":"TT Singh","Tehsil":"Gojra","KD_Name":"Chak 350+Jb  Wahidpur"},"geometry":{"x":72.724635000000035,"y":31.22695200000004}},{"attributes":{"FID":6,"District":"TT Singh","Tehsil":"Gojra","KD_Name":"Chak 094+Jb  Gill Lala"},"geometry":{"x":72.764799000000039,"y":31.219323000000031}},{"attributes":{"FID":7,"District":"TT Singh","Tehsil":"Gojra","KD_Name":"Chak 418+Jb  Sarja Chak"},"geometry":{"x":72.626289000000043,"y":31.236197000000061}},{"attributes":{"FID":8,"District":"TT Singh","Tehsil":"Gojra","KD_Name":"Chak 351+Jb  Surajpur"},"geometry":{"x":72.64427500000005,"y":31.171211000000028}},{"attributes":{"FID":9,"District":"TT Singh","Tehsil":"Gojra","KD_Name":"Chak No. 367+Jb Shalamar"},"geometry":{"x":72.717910000000074,"y":31.175554000000034}},{"attributes":{"FID":10,"District":"TT Singh","Tehsil":"Gojra","KD_Name":"Chak No. 370+Jb Tariqabad Ghenike Bet"},"geometry":{"x":72.672548000000063,"y":31.130329000000074}},{"attributes":{"FID":11,"District":"TT Singh","Tehsil":"Gojra","KD_Name":"Chak No. 369+Jb  Santokhsar"},"geometry":{"x":72.696578000000045,"y":31.084034000000031}},{"attributes":{"FID":12,"District":"TT Singh","Tehsil":"Gojra","KD_Name":"Chak No. 161+Gb Ramgarh"},"geometry":{"x":72.694790000000069,"y":31.050870000000032}},{"attributes":{"FID":13,"District":"TT Singh","Tehsil":"Gojra","KD_Name":"Chak No. 179+Gb Salem Pur"},"geometry":{"x":72.754292000000078,"y":31.051728000000026}},{"attributes":{"FID":14,"District":"TT Singh","Tehsil":"Gojra","KD_Name":"Chak No. 245+Gb Talwandi Bhatian"},"geometry":{"x":72.727265000000045,"y":31.011063000000036}},{"attributes":{"FID":15,"District":"TT Singh","Tehsil":"Gojra","KD_Name":"Chak 424+Jb  Montgomerywala"},"geometry":{"x":72.586531000000036,"y":31.210882000000026}},{"attributes":{"FID":16,"District":"TT Singh","Tehsil":"Gojra","KD_Name":"439+Jb  Virk Wala 1"},"geometry":{"x":72.525570000000073,"y":31.192424000000074}},{"attributes":{"FID":17,"District":"TT Singh","Tehsil":"Gojra","KD_Name":"Chak 359+Jb  Nangali Dhepai"},"geometry":{"x":72.577221000000065,"y":31.169534000000056}},{"attributes":{"FID":18,"District":"TT Singh","Tehsil":"Gojra","KD_Name":"Chak 305+Jb  Mansar Walian"},"geometry":{"x":72.582760000000064,"y":31.129178000000024}}]}