{"displayFieldName":"","fieldAliases":{"FID":"FID","District":"District","Tehsil":"Tehsil","Mauza":"Mauza"},"geometryType":"esriGeometryPoint","spatialReference":{"wkid":4326,"latestWkid":4326,"vcsWkid":5773,"latestVcsWkid":5773},"fields":[{"name":"FID","type":"esriFieldTypeOID","alias":"FID"},{"name":"District","type":"esriFieldTypeString","alias":"District","length":254},{"name":"Tehsil","type":"esriFieldTypeString","alias":"Tehsil","length":254},{"name":"Mauza","type":"esriFieldTypeString","alias":"Mauza","length":254}],"features":[{"attributes":{"FID":0,"District":"TT Singh","Tehsil":"Kamalia","Mauza":"a   Chak No. 692+G.B"},"geometry":{"x":72.250717000000066,"y":30.726296000000048}},{"attributes":{"FID":1,"District":"TT Singh","Tehsil":"Kamalia","Mauza":"a   Chak 768+Gb"},"geometry":{"x":72.243049000000042,"y":30.692447000000072}},{"attributes":{"FID":2,"District":"TT Singh","Tehsil":"Kamalia","Mauza":"a   Chak 697+Gb"},"geometry":{"x":72.18868800000007,"y":30.677584000000024}},{"attributes":{"FID":3,"District":"TT Singh","Tehsil":"Kamalia","Mauza":"a   Chak 776+Gb"},"geometry":{"x":72.193176000000051,"y":30.603792000000055}},{"attributes":{"FID":4,"District":"TT Singh","Tehsil":"Kamalia","Mauza":"a   Lala Mehr Chand"},"geometry":{"x":72.248900000000049,"y":30.619954000000064}},{"attributes":{"FID":5,"District":"TT Singh","Tehsil":"Kamalia","Mauza":"a   Aroti 1"},"geometry":{"x":72.289433000000031,"y":30.63333700000004}},{"attributes":{"FID":6,"District":"TT Singh","Tehsil":"Kamalia","Mauza":"a   Chak 753+Gb"},"geometry":{"x":72.313816000000031,"y":30.708111000000031}},{"attributes":{"FID":7,"District":"TT Singh","Tehsil":"Kamalia","Mauza":"a   Chak 677+Gb"},"geometry":{"x":72.397220000000061,"y":30.710826000000054}},{"attributes":{"FID":8,"District":"TT Singh","Tehsil":"Kamalia","Mauza":"a   Chak 687+Gb Dharampura"},"geometry":{"x":72.385675000000049,"y":30.688388000000032}},{"attributes":{"FID":9,"District":"TT Singh","Tehsil":"Kamalia","Mauza":"a   Chak 750+Gb"},"geometry":{"x":72.416916000000072,"y":30.639504000000045}},{"attributes":{"FID":10,"District":"TT Singh","Tehsil":"Kamalia","Mauza":"a   Chak 762+Gb Sandhilianwali"},"geometry":{"x":72.372517000000073,"y":30.630910000000029}},{"attributes":{"FID":11,"District":"TT Singh","Tehsil":"Kamalia","Mauza":"a   Chak 765+Gb Jungle Shah Nizamn"},"geometry":{"x":72.322708000000034,"y":30.613262000000077}},{"attributes":{"FID":12,"District":"TT Singh","Tehsil":"Kamalia","Mauza":"a   Chak 743+Gb"},"geometry":{"x":72.48134900000008,"y":30.620059000000026}},{"attributes":{"FID":13,"District":"TT Singh","Tehsil":"Kamalia","Mauza":"a   Chak 716+Gb"},"geometry":{"x":72.488704000000041,"y":30.677896000000032}},{"attributes":{"FID":14,"District":"TT Singh","Tehsil":"Kamalia","Mauza":"a   Chak 673+Gb Sadhoo Junaig"},"geometry":{"x":72.461851000000081,"y":30.727791000000025}},{"attributes":{"FID":15,"District":"TT Singh","Tehsil":"Kamalia","Mauza":"a   Chak 678+Gb Khershah"},"geometry":{"x":72.52497100000005,"y":30.747765000000072}},{"attributes":{"FID":16,"District":"TT Singh","Tehsil":"Kamalia","Mauza":"a   Chak 665+Gb Krishen Nagar"},"geometry":{"x":72.571319000000074,"y":30.750070000000051}},{"attributes":{"FID":17,"District":"TT Singh","Tehsil":"Kamalia","Mauza":"a   706 Gb"},"geometry":{"x":72.593549000000053,"y":30.711719000000073}},{"attributes":{"FID":18,"District":"TT Singh","Tehsil":"Kamalia","Mauza":"a   Qasmana"},"geometry":{"x":72.572861000000046,"y":30.632354000000078}},{"attributes":{"FID":19,"District":"TT Singh","Tehsil":"Kamalia","Mauza":"a   Chak 736+Gb"},"geometry":{"x":72.605756000000042,"y":30.596798000000035}},{"attributes":{"FID":20,"District":"TT Singh","Tehsil":"Kamalia","Mauza":"a   Chak 737+Gb"},"geometry":{"x":72.698176000000046,"y":30.61976100000004}},{"attributes":{"FID":21,"District":" ","Tehsil":"Kamalia","Mauza":"a   Chak 712+Gb"},"geometry":{"x":72.66119800000007,"y":30.669279000000074}},{"attributes":{"FID":22,"District":" ","Tehsil":"Kamalia","Mauza":"a   Chak 710+Gb"},"geometry":{"x":72.685365000000047,"y":30.693325000000073}},{"attributes":{"FID":23,"District":" ","Tehsil":"Kamalia","Mauza":"a   Khair Shah Sani"},"geometry":{"x":72.755629000000056,"y":30.718150000000037}}]}