{"displayFieldName":"","fieldAliases":{"FID":"FID","District":"District","Tehsil":"Tehsil","KD_Name":"KD_Name"},"geometryType":"esriGeometryPoint","spatialReference":{"wkid":4326,"latestWkid":4326,"vcsWkid":5773,"latestVcsWkid":5773},"fields":[{"name":"FID","type":"esriFieldTypeOID","alias":"FID"},{"name":"District","type":"esriFieldTypeString","alias":"District","length":254},{"name":"Tehsil","type":"esriFieldTypeString","alias":"Tehsil","length":254},{"name":"KD_Name","type":"esriFieldTypeString","alias":"KD_Name","length":254}],"features":[{"attributes":{"FID":0,"District":"Jhang","Tehsil":"Shorkot","KD_Name":"Kotli Jhandiran"},"geometry":{"x":71.923062000000073,"y":30.712590000000034}},{"attributes":{"FID":1,"District":"Jhang","Tehsil":"Shorkot","KD_Name":"Piroana Janubi"},"geometry":{"x":72.017481000000032,"y":30.725040000000035}},{"attributes":{"FID":2,"District":"Jhang","Tehsil":"Shorkot","KD_Name":"Basti Islam"},"geometry":{"x":71.95996800000006,"y":30.734711000000061}},{"attributes":{"FID":3,"District":"Jhang","Tehsil":"Shorkot","KD_Name":"Naushera"},"geometry":{"x":71.889691000000084,"y":30.716969000000063}},{"attributes":{"FID":4,"District":"Jhang","Tehsil":"Shorkot","KD_Name":"Khuranwala"},"geometry":{"x":71.959267000000068,"y":30.782644000000062}},{"attributes":{"FID":5,"District":"Jhang","Tehsil":"Shorkot","KD_Name":"Kaki Nau Awwal"},"geometry":{"x":72.019456000000048,"y":30.776124000000038}},{"attributes":{"FID":6,"District":"Jhang","Tehsil":"Shorkot","KD_Name":"Rakh Kotla"},"geometry":{"x":72.101883000000043,"y":30.776943000000074}},{"attributes":{"FID":7,"District":"Jhang","Tehsil":"Shorkot","KD_Name":"Chak No.017 Ghugh"},"geometry":{"x":72.159793000000036,"y":30.818153000000052}},{"attributes":{"FID":8,"District":"Jhang","Tehsil":"Shorkot","KD_Name":"Chak No.412 Jb"},"geometry":{"x":72.225317000000075,"y":30.797164000000066}},{"attributes":{"FID":9,"District":"Jhang","Tehsil":"Shorkot","KD_Name":"Mangan"},"geometry":{"x":72.091703000000052,"y":30.856750000000034}},{"attributes":{"FID":10,"District":"Jhang","Tehsil":"Shorkot","KD_Name":"Nawabpur"},"geometry":{"x":72.048385000000053,"y":30.879949000000067}},{"attributes":{"FID":11,"District":"Jhang","Tehsil":"Shorkot","KD_Name":"Allahyar Jotta"},"geometry":{"x":72.118164000000036,"y":30.905575000000056}},{"attributes":{"FID":12,"District":"Jhang","Tehsil":"Shorkot","KD_Name":"Fareed Mahmood Kathya"},"geometry":{"x":72.136239000000046,"y":30.897155000000055}},{"attributes":{"FID":13,"District":"Jhang","Tehsil":"Shorkot","KD_Name":"Chak No.501 Jb"},"geometry":{"x":72.164791000000037,"y":30.845139000000074}},{"attributes":{"FID":14,"District":"Jhang","Tehsil":"Shorkot","KD_Name":"Kakku Wala"},"geometry":{"x":72.148916000000042,"y":30.963404000000025}},{"attributes":{"FID":15,"District":"Jhang","Tehsil":"Shorkot","KD_Name":"Kalo Wala"},"geometry":{"x":72.214437000000032,"y":30.884613000000058}},{"attributes":{"FID":16,"District":"Jhang","Tehsil":"Shorkot","KD_Name":"Chak No.493 Jb"},"geometry":{"x":72.239078000000063,"y":30.922521000000074}},{"attributes":{"FID":17,"District":"Jhang","Tehsil":"Shorkot","KD_Name":"Qaim Bharwana"},"geometry":{"x":72.25467100000003,"y":30.963823000000048}},{"attributes":{"FID":18,"District":"Jhang","Tehsil":"Shorkot","KD_Name":"Chak No.491 Jb"},"geometry":{"x":72.287933000000066,"y":30.964464000000078}},{"attributes":{"FID":19,"District":"Jhang","Tehsil":"Shorkot","KD_Name":"Basti Rashid"},"geometry":{"x":72.153906000000063,"y":31.022840000000031}},{"attributes":{"FID":20,"District":"Jhang","Tehsil":"Shorkot","KD_Name":"Haveli Bahadur Shah Sharqi"},"geometry":{"x":72.186159000000032,"y":31.073305000000062}},{"attributes":{"FID":21,"District":"Jhang","Tehsil":"Shorkot","KD_Name":"Ludah Mahni"},"geometry":{"x":72.226735000000076,"y":31.010907000000032}},{"attributes":{"FID":22,"District":"Jhang","Tehsil":"Shorkot","KD_Name":"Rustam Sargana"},"geometry":{"x":72.235599000000036,"y":31.058864000000028}},{"attributes":{"FID":23,"District":"Jhang","Tehsil":"Shorkot","KD_Name":"Pirwala"},"geometry":{"x":72.281575000000032,"y":31.027711000000068}},{"attributes":{"FID":24,"District":"Jhang","Tehsil":"Shorkot","KD_Name":"Chak No.485 Jb"},"geometry":{"x":72.367132000000083,"y":31.041103000000078}},{"attributes":{"FID":25,"District":"Jhang","Tehsil":"Shorkot","KD_Name":"Chak No.482 Jb"},"geometry":{"x":72.348588000000063,"y":31.049958000000061}},{"attributes":{"FID":26,"District":"Jhang","Tehsil":"Shorkot","KD_Name":"Chak No.002 Basira"},"geometry":{"x":72.180610000000058,"y":30.723425000000077}}]}