{"displayFieldName":"","fieldAliases":{"FID":"FID","District":"District","Tehsil":"Tehsil","KD_Name":"KD_Name"},"geometryType":"esriGeometryPoint","spatialReference":{"wkid":4326,"latestWkid":4326,"vcsWkid":5773,"latestVcsWkid":5773},"fields":[{"name":"FID","type":"esriFieldTypeOID","alias":"FID"},{"name":"District","type":"esriFieldTypeString","alias":"District","length":254},{"name":"Tehsil","type":"esriFieldTypeString","alias":"Tehsil","length":254},{"name":"KD_Name","type":"esriFieldTypeString","alias":"KD_Name","length":254}],"features":[{"attributes":{"FID":0,"District":"Chiniot","Tehsil":"Chiniot","KD_Name":"Bukharian"},"geometry":{"x":72.849923000000047,"y":31.659349000000077}},{"attributes":{"FID":1,"District":"Chiniot","Tehsil":"Bhawana","KD_Name":"Jand Wala"},"geometry":{"x":72.817199000000073,"y":31.644644000000028}},{"attributes":{"FID":2,"District":"Chiniot","Tehsil":"Bhawana","KD_Name":"Sajankey"},"geometry":{"x":72.747698000000071,"y":31.647299000000032}},{"attributes":{"FID":3,"District":"Chiniot","Tehsil":"Bhawana","KD_Name":"Jamia ABad"},"geometry":{"x":72.72787900000003,"y":31.604150000000061}},{"attributes":{"FID":4,"District":"Chiniot","Tehsil":"Bhawana","KD_Name":"Nowshehra"},"geometry":{"x":72.669182000000035,"y":31.616531000000066}},{"attributes":{"FID":5,"District":"Chiniot","Tehsil":"Bhawana","KD_Name":"Moza Barkhurdar"},"geometry":{"x":72.696167000000059,"y":31.603273000000058}},{"attributes":{"FID":6,"District":"Chiniot","Tehsil":"Bhawana","KD_Name":"Moza Risaloo"},"geometry":{"x":72.773229000000072,"y":31.567742000000067}},{"attributes":{"FID":7,"District":"Chiniot","Tehsil":"Bhawana","KD_Name":"Zia Abad"},"geometry":{"x":72.783971000000065,"y":31.508634000000029}},{"attributes":{"FID":8,"District":"Chiniot","Tehsil":"Bhawana","KD_Name":"Saeed Wala"},"geometry":{"x":72.746998000000076,"y":31.534843000000023}},{"attributes":{"FID":9,"District":"Chiniot","Tehsil":"Bhawana","KD_Name":"Chak 206 JB"},"geometry":{"x":72.808809000000053,"y":31.465070000000026}},{"attributes":{"FID":10,"District":"Chiniot","Tehsil":"Bhawana","KD_Name":"Chak 209 JB Tarar"},"geometry":{"x":72.744594000000063,"y":31.453037000000052}},{"attributes":{"FID":11,"District":"Chiniot","Tehsil":"Bhawana","KD_Name":"Chak 201 JB"},"geometry":{"x":72.782478000000083,"y":31.398164000000065}},{"attributes":{"FID":12,"District":"Chiniot","Tehsil":"Bhawana","KD_Name":"Chak 247 JB"},"geometry":{"x":72.685838000000047,"y":31.384082000000035}},{"attributes":{"FID":13,"District":"Chiniot","Tehsil":"Bhawana","KD_Name":"Chak 226 Bharwana"},"geometry":{"x":72.661905000000047,"y":31.44631000000004}},{"attributes":{"FID":14,"District":"Chiniot","Tehsil":"Bhawana","KD_Name":"Chak 240 Malaka Rajoka"},"geometry":{"x":72.718848000000037,"y":31.493485000000078}},{"attributes":{"FID":15,"District":"Chiniot","Tehsil":"Bhawana","KD_Name":"Chak 224 J.B. Chachkana"},"geometry":{"x":72.65248500000007,"y":31.481260000000077}},{"attributes":{"FID":16,"District":"Chiniot","Tehsil":"Bhawana","KD_Name":"Beriyanwala"},"geometry":{"x":72.670746000000065,"y":31.521528000000046}},{"attributes":{"FID":17,"District":"Chiniot","Tehsil":"Bhawana","KD_Name":"Tahli Mangini"},"geometry":{"x":72.608952000000045,"y":31.594611000000043}},{"attributes":{"FID":18,"District":"Chiniot","Tehsil":"Bhawana","KD_Name":"Warra Thatta"},"geometry":{"x":72.541747000000043,"y":31.539450000000045}},{"attributes":{"FID":19,"District":"Chiniot","Tehsil":"Bhawana","KD_Name":"Sherabad"},"geometry":{"x":72.549439000000064,"y":31.505294000000049}}]}