{"displayFieldName":"","fieldAliases":{"FID":"FID","District":"District","Tehsil":"Tehsil","mauza":"mauza"},"geometryType":"esriGeometryPoint","spatialReference":{"wkid":4326,"latestWkid":4326,"vcsWkid":5773,"latestVcsWkid":5773},"fields":[{"name":"FID","type":"esriFieldTypeOID","alias":"FID"},{"name":"District","type":"esriFieldTypeString","alias":"District","length":254},{"name":"Tehsil","type":"esriFieldTypeString","alias":"Tehsil","length":254},{"name":"mauza","type":"esriFieldTypeString","alias":"mauza","length":254}],"features":[{"attributes":{"FID":0,"District":"Chiniot","Tehsil":"Chiniot","mauza":"Mathruma"},"geometry":{"x":72.909465000000068,"y":31.677140000000065}},{"attributes":{"FID":1,"District":"Chiniot","Tehsil":"Chiniot","mauza":"Jani Shah"},"geometry":{"x":72.865281000000039,"y":31.653004000000067}},{"attributes":{"FID":2,"District":"Chiniot","Tehsil":"Chiniot","mauza":"Chak No 143 JB"},"geometry":{"x":72.836248000000069,"y":31.591575000000034}},{"attributes":{"FID":3,"District":"Chiniot","Tehsil":"Chiniot","mauza":"Chak No 137 JB"},"geometry":{"x":72.889013000000034,"y":31.570666000000074}},{"attributes":{"FID":4,"District":"Chiniot","Tehsil":"Chiniot","mauza":"Chak No 149 JB"},"geometry":{"x":72.858649000000071,"y":31.495013000000029}},{"attributes":{"FID":5,"District":"Chiniot","Tehsil":"Chiniot","mauza":"Chak No 15 JB"},"geometry":{"x":73.10360200000008,"y":31.716860000000054}},{"attributes":{"FID":6,"District":"Chiniot","Tehsil":"Chiniot","mauza":"Rajoa"},"geometry":{"x":72.970444000000043,"y":31.637508000000025}},{"attributes":{"FID":7,"District":"Chiniot","Tehsil":"Chiniot","mauza":"Chak 128"},"geometry":{"x":73.036245000000065,"y":31.598679000000061}},{"attributes":{"FID":8,"District":"Chiniot","Tehsil":"Chiniot","mauza":"Pabbar Wala"},"geometry":{"x":72.958756000000051,"y":31.607213000000058}},{"attributes":{"FID":9,"District":"Chiniot","Tehsil":"Chiniot","mauza":"Qasim Abad"},"geometry":{"x":73.042515000000037,"y":31.745358000000067}},{"attributes":{"FID":10,"District":"Chiniot","Tehsil":"Chiniot","mauza":"Murad Wala 1"},"geometry":{"x":73.072729000000038,"y":31.758591000000024}},{"attributes":{"FID":11,"District":"Chiniot","Tehsil":"Chiniot","mauza":"Kot Khair Shah"},"geometry":{"x":73.125231000000042,"y":31.720934000000057}},{"attributes":{"FID":12,"District":"Chiniot","Tehsil":"Chiniot","mauza":"Hersa Sheikh"},"geometry":{"x":73.133575000000064,"y":31.79180400000007}},{"attributes":{"FID":13,"District":"Chiniot","Tehsil":"Chiniot","mauza":"Kot Khuda Yar"},"geometry":{"x":73.018034000000057,"y":31.691098000000068}},{"attributes":{"FID":14,"District":"Chiniot","Tehsil":"Chiniot","mauza":"Salara"},"geometry":{"x":73.01389800000004,"y":31.732502000000068}},{"attributes":{"FID":15,"District":"Chiniot","Tehsil":"Chiniot","mauza":"Qila AChak 240 Malaka Rajokasian"},"geometry":{"x":73.164619000000073,"y":31.804865000000063}},{"attributes":{"FID":16,"District":"Chiniot","Tehsil":"Chiniot","mauza":"Chak 240 Malaka Rajoka"},"geometry":{"x":72.718848000000037,"y":31.493485000000078}}]}