{"displayFieldName":"","fieldAliases":{"FID":"FID","District":"District","Tehsil":"Tehsil","mauza":"mauza"},"geometryType":"esriGeometryPoint","spatialReference":{"wkid":4326,"latestWkid":4326,"vcsWkid":5773,"latestVcsWkid":5773},"fields":[{"name":"FID","type":"esriFieldTypeOID","alias":"FID"},{"name":"District","type":"esriFieldTypeString","alias":"District","length":254},{"name":"Tehsil","type":"esriFieldTypeString","alias":"Tehsil","length":254},{"name":"mauza","type":"esriFieldTypeString","alias":"mauza","length":254}],"features":[{"attributes":{"FID":0,"District":"TT Singh","Tehsil":"TT Singh","mauza":"Chak No 317 Jb Kama Chan"},"geometry":{"x":72.499430000000075,"y":31.11149000000006}},{"attributes":{"FID":1,"District":"TT Singh","Tehsil":"TT Singh","mauza":"384 Jb  Isapur"},"geometry":{"x":72.434400000000039,"y":31.061052000000075}},{"attributes":{"FID":2,"District":"TT Singh","Tehsil":"TT Singh","mauza":"Chak 377 Jb  Jhanwan"},"geometry":{"x":72.522353000000066,"y":31.06054000000006}},{"attributes":{"FID":3,"District":"TT Singh","Tehsil":"TT Singh","mauza":"302 Jb  Nurpur"},"geometry":{"x":72.621181000000036,"y":31.096069000000057}},{"attributes":{"FID":4,"District":"TT Singh","Tehsil":"TT Singh","mauza":"286 Jb  Amir Katrah Dal Singh"},"geometry":{"x":72.599679000000037,"y":31.040186000000062}},{"attributes":{"FID":5,"District":"TT Singh","Tehsil":"TT Singh","mauza":"Chak 292 Jb  Kot Syed Mahmud"},"geometry":{"x":72.578861000000074,"y":30.987401000000034}},{"attributes":{"FID":6,"District":"TT Singh","Tehsil":"TT Singh","mauza":"Chak 519 Gb  Ramsar"},"geometry":{"x":72.651523000000054,"y":30.987763000000029}},{"attributes":{"FID":7,"District":"TT Singh","Tehsil":"TT Singh","mauza":"Chak 247 Gb Maurusipur"},"geometry":{"x":72.687467000000083,"y":30.964759000000072}},{"attributes":{"FID":8,"District":"TT Singh","Tehsil":"TT Singh","mauza":"183 Gb Pakhowal Kotmian Sahib"},"geometry":{"x":72.663489000000084,"y":30.920750000000055}},{"attributes":{"FID":9,"District":"TT Singh","Tehsil":"TT Singh","mauza":"149 Gb Gopala Alias Kohaike"},"geometry":{"x":72.551408000000038,"y":30.953028000000074}},{"attributes":{"FID":10,"District":"TT Singh","Tehsil":"TT Singh","mauza":"Chak 325 Jb  Mahal Jam"},"geometry":{"x":72.480164000000059,"y":30.996110000000044}},{"attributes":{"FID":11,"District":"TT Singh","Tehsil":"TT Singh","mauza":"Chak 469 Jb  Panjuuana"},"geometry":{"x":72.409887000000083,"y":31.021780000000035}},{"attributes":{"FID":12,"District":"TT Singh","Tehsil":"TT Singh","mauza":"Chak 399+Jb  Ajram"},"geometry":{"x":72.365743000000066,"y":30.975008000000059}},{"attributes":{"FID":13,"District":"TT Singh","Tehsil":"TT Singh","mauza":"Chak 301+Gb  Gurdaspur"},"geometry":{"x":72.443616000000077,"y":30.964624000000072}},{"attributes":{"FID":14,"District":"TT Singh","Tehsil":"TT Singh","mauza":"Chak 295+Gb  Gobindpur"},"geometry":{"x":72.499924000000078,"y":30.940226000000052}},{"attributes":{"FID":15,"District":"TT Singh","Tehsil":"TT Singh","mauza":"Chak 293 Gb  Sheron"},"geometry":{"x":72.525089000000037,"y":30.92459400000007}},{"attributes":{"FID":16,"District":"TT Singh","Tehsil":"TT Singh","mauza":"Chak 256 Gb  Phalor"},"geometry":{"x":72.580896000000052,"y":30.911375000000078}},{"attributes":{"FID":17,"District":"TT Singh","Tehsil":"TT Singh","mauza":"Chak 254 Gb Soond"},"geometry":{"x":72.639957000000038,"y":30.865658000000053}},{"attributes":{"FID":18,"District":"TT Singh","Tehsil":"TT Singh","mauza":"Chak 190+Gb  Kitchen Abad"},"geometry":{"x":72.718574000000046,"y":30.794728000000077}},{"attributes":{"FID":19,"District":"TT Singh","Tehsil":"TT Singh","mauza":"Plot 54+1"},"geometry":{"x":72.667925000000082,"y":30.768014000000051}},{"attributes":{"FID":20,"District":"TT Singh","Tehsil":"TT Singh","mauza":"Chak 184+Gb  Jhok Kalu Gadhi"},"geometry":{"x":72.642859000000044,"y":30.830517000000043}},{"attributes":{"FID":21,"District":"TT Singh","Tehsil":"TT Singh","mauza":"Plot-054+2"},"geometry":{"x":72.594637000000034,"y":30.778946000000076}},{"attributes":{"FID":22,"District":"TT Singh","Tehsil":"TT Singh","mauza":"663 Gb"},"geometry":{"x":72.469694000000061,"y":30.796196000000066}},{"attributes":{"FID":23,"District":"TT Singh","Tehsil":"TT Singh","mauza":"Chak 517+Gb  Bahmdi"},"geometry":{"x":72.494388000000072,"y":30.844501000000037}},{"attributes":{"FID":24,"District":"TT Singh","Tehsil":"TT Singh","mauza":"Chak 348+Gb  Dheri"},"geometry":{"x":72.467118000000085,"y":30.883376000000055}},{"attributes":{"FID":25,"District":"TT Singh","Tehsil":"TT Singh","mauza":"Chak 345+Gb  Gilpur Kalan"},"geometry":{"x":72.409106000000065,"y":30.918142000000046}},{"attributes":{"FID":26,"District":"TT Singh","Tehsil":"TT Singh","mauza":"Chak 405+Jb  Maqeempur"},"geometry":{"x":72.328037000000052,"y":30.901429000000064}},{"attributes":{"FID":27,"District":"TT Singh","Tehsil":"TT Singh","mauza":"Chak 411+Jb  Chhanglah"},"geometry":{"x":72.27497100000005,"y":30.866831000000047}},{"attributes":{"FID":28,"District":"TT Singh","Tehsil":"TT Singh","mauza":"Chak No. 312+G.B"},"geometry":{"x":72.34396600000008,"y":30.861084000000062}},{"attributes":{"FID":29,"District":"TT Singh","Tehsil":"TT Singh","mauza":"Chak 317+Gb  Bhaliwal"},"geometry":{"x":72.39575700000006,"y":30.846352000000024}},{"attributes":{"FID":30,"District":"TT Singh","Tehsil":"TT Singh","mauza":"Chak 343+Gb  Jorahan"},"geometry":{"x":72.431871000000058,"y":30.821256000000062}},{"attributes":{"FID":31,"District":"TT Singh","Tehsil":"TT Singh","mauza":"Chak 319+Gb  Khosi"},"geometry":{"x":72.421130000000062,"y":30.764324000000045}},{"attributes":{"FID":32,"District":"TT Singh","Tehsil":"TT Singh","mauza":"Chak 311+Gb  Wains Awan"},"geometry":{"x":72.371637000000078,"y":30.795778000000041}},{"attributes":{"FID":33,"District":"TT Singh","Tehsil":"TT Singh","mauza":"Chak No. 325+G.B."},"geometry":{"x":72.313989000000049,"y":30.771740000000079}},{"attributes":{"FID":34,"District":"TT Singh","Tehsil":"TT Singh","mauza":"Chak No 326+G.B."},"geometry":{"x":72.320166000000029,"y":30.803237000000024}},{"attributes":{"FID":35,"District":"TT Singh","Tehsil":"TT Singh","mauza":"Chak 381 Jb Kahlwan"},"geometry":{"x":72.505158000000051,"y":31.038972000000058}}]}